"lat","lng","name"
34.98300013,63.13329964,"Qal eh-ye Now"
34.5167011,65.25000063,"Chaghcharan"
31.58299802,64.35999955,"Lashkar Gah"
31.11200108,61.88699752,"Zaranj"
32.63329815,65.86669865,"Tarin Kowt"
32.85000016,68.41670453,"Zareh Sharan"
34.86600004,71.15000459,"Asadabad"
36.72999904,69.54000364,"Taloqan"
35.01669608,69.33330065,"Mahmud-E Eraqi"
34.65000001,70.16670052,"Mehtar Lam"
33.9667021,68.96670354,"Baraki Barak"
36.26100015,68.04000051,"Aybak"
34.45000209,68.79999663,"Mayda Shahr"
34.48676963,62.59177608,"Karokh"
36.65798077,65.73830237,"Sheberghan"
35.95107302,68.70111894,"Pol-e Khomri"
36.75011985,66.89973018,"Balkh"
35.93022158,64.77009273,"Meymaneh"
36.93165916,65.10149369,"Andkhvoy"
32.11226341,66.8867594,"Qalat"
33.56331179,68.41782873,"Ghazni"
37.12976076,70.57924719,"Feyzabad"
36.72795066,68.87252966,"Kondoz"
34.44152692,70.43610347,"Jalalabad"
35.01826174,69.16791215,"Charikar"
33.60005373,69.21462764,"Gardiz"
34.82106447,67.52103593,"Bamian"
36.13933026,68.69925858,"Baghlan"
32.39172955,62.09681921,"Farah"
34.33000917,62.16999304,"Herat"
36.69999371,67.10002803,"Mazar-e Sharif"
31.61002016,65.69494584,"Kandahar"
34.51669029,69.18326005,"Kabul"
60.09699618,19.94900447,"Mariehamn"
41.51899817,19.79700359,"Kruje"
40.73000402,19.5730026,"Fier"
40.94000113,19.71600348,"Lushnje"
42.03330302,19.88330448,"Puke"
42.33330007,20.08330257,"Bajram Curri"
42.08300107,20.43399653,"Kukes"
39.87700212,19.99999859,"Sarande"
40.33330213,20.68329651,"Erseke"
40.89999612,20.66400062,"Pogradec"
40.61667601,20.76666353,"Korce"
40.70999705,19.97199958,"Berat"
40.51670403,20.23329663,"Corovode"
40.86669601,20.19999652,"Gramsh"
41.20000211,20.3667036,"Librazhd"
40.2832981,20.03329854,"Tepelene"
40.23399605,20.35199756,"Permet"
40.07899809,20.14900256,"Gjirokaster"
41.6833021,20.43330349,"Peshkopi"
41.62599908,20.01600053,"Burrel"
41.78799914,19.65400254,"Lezhe"
41.78330106,19.81670459,"Rreshen"
40.47736005,19.49823075,"Vlore"
41.12150677,20.08382808,"Elbasan"
41.3177997,19.44820797,"Durres"
42.06845156,19.51884965,"Shkoder"
41.32754071,19.81888301,"Tirana"
36.82199703,5.76600356,"Jijel"
36.80000111,4.033332556,"Tizi-Ouzou"
36.05900401,4.629996466,"Bordj Bou Arreridj"
35.7000031,4.545000584,"M'sila"
36.46600213,7.427997486,"Guelma"
35.84999715,7.149996522,"Oum el Bouaghi"
29.23652163,0.269998737,"Timimoun"
35.19034426,-0.639971559,"Sidi bel Abbes"
34.89041424,-1.32000757,"Tlimcen"
32.04926984,-1.251381268,"Beni Ounif"
31.01708478,-2.733306317,"Abadla"
32.76041506,-0.579949383,"Sefra"
36.88042198,6.899981647,"Skikda"
24.5529057,9.482252969,"Djanet"
28.0503408,9.550000772,"I-n-Amenas"
23.69394004,5.164738727,"In Amguel"
33.6903583,1.009953571,"El Bayadh"
33.37040367,6.859984089,"El Oued"
31.70234011,6.054451862,"Hassi Messaoud"
36.17041363,1.319960489,"Chlef"
35.40040895,0.14003251,"Mascara"
35.940376,0.089983885,"Mostaganem"
34.84039146,0.14003251,"Saida"
35.38043601,1.319960489,"Tiarat"
36.76037762,5.070015827,"Bejaia"
36.4203467,2.829997517,"Blida"
36.38047833,3.900009724,"Bouira"
36.27040753,2.770001179,"Medea"
36.29038047,7.949995075,"Souk Ahras"
35.41043418,8.120010537,"Tebessa"
27.86999005,-0.289967083,"Adrar"
26.69998395,0.166645873,"Reggane"
31.61110537,-2.230003704,"Bechar"
27.67418805,-8.147782025,"Tindouf"
26.48335634,8.466604369,"Illizi"
25.2799931,3.749993041,"Arak"
27.21664492,2.466608845,"I-n-Salah"
30.56662132,2.883327595,"El Golea"
33.80998924,2.880020303,"Laghouat"
33.0999809,6.05998124,"Touggourt"
31.96997235,5.340025186,"Ouargla"
34.85997683,5.73002722,"Biskra"
34.67998781,3.250023558,"Djelfa"
36.18002545,5.399969847,"Setif"
35.56995933,6.170000365,"Batna"
36.92000612,7.759980834,"Annaba"
36.35998863,6.599948281,"Constantine"
35.71000246,-0.61997278,"Oran"
22.78500327,5.522804727,"Tamanrasset"
32.48999229,3.669997923,"Ghardaia"
36.7630648,3.05055253,"Algiers"
-14.2766105,-170.7066451,"Pago Pago"
42.50000144,1.516485961,"Andorra"
-18.01953449,21.42999914,"Mucusso"
-8.419603659,20.74001542,"Lucapa"
-9.4195943,18.43002722,"Capenda-Camulemba"
-9.659579652,20.39001094,"Saurimo"
-10.59962563,21.31998002,"Muconda"
-10.14962726,19.2600024,"Cacolo"
-8.579542217,13.65998246,"Caxito"
-8.189591859,15.37000728,"Camabatela"
-9.299549948,14.90998368,"Ndalatando"
-10.72959186,14.97995357,"Quibala"
-9.999610577,14.90001013,"Calulo"
-11.35952757,15.1199967,"Waku Kungo"
-7.349591452,14.84998734,"Songo"
-6.269605694,14.23999874,"Mbanza-Congo"
-7.229598776,12.86003129,"Nzeto"
-6.129614239,12.36998368,"Soyo"
-5.55962319,12.18999467,"Cabinda"
-11.31958169,16.19998246,"Calucinga"
-12.01959064,17.46998246,"Camacupa"
-13.03958006,14.23999874,"Cubal"
-15.7895414,20.36003861,"Mavinga"
-15.15960569,19.16998205,"Cuito Caunavale"
-17.36954832,22.99998083,"Luiana"
-17.06961831,15.73003699,"Ondjiva"
-17.31962889,13.92001827,"Chitado"
-15.74959552,14.0800085,"Chibemba"
-15.1896297,13.69000647,"Chibia"
-14.82954832,14.55000565,"Quipungo"
-10.7095414,22.23000199,"Luau"
-13.69959145,19.86001745,"Cangamba"
-14.09961871,21.44002437,"Lumbala Nguimbo"
-11.88957273,22.90003861,"Cazombo"
-7.380028871,20.82998409,"Dundo"
-7.85498696,13.12502803,"Ambriz"
-9.690017071,14.43001298,"Dondo"
-11.21002765,13.8499967,"Sumbe"
-7.620014222,15.04997514,"Uige"
-12.38003375,16.93998897,"Kuito"
-12.37000853,13.54123002,"Lobito"
-16.74002602,14.96998002,"Xangongo"
-11.79004393,19.90001501,"Luena"
-15.80003172,11.85998897,"Tômbua"
-9.540000388,16.34002559,"Malanje"
-12.57826455,13.40723303,"Benguela"
-14.91000853,13.49001868,"Lubango"
-15.19004311,12.16002234,"Namibe"
-14.66661253,17.69999426,"Menongue"
-12.74998533,15.76000932,"Huambo"
-8.838286114,13.23442704,"Luanda"
-62.17388669,-58.86386407,"Artigas Base"
-62.49950682,-59.68331852,"Capitan Arturo Prat Station"
-64.23288939,-56.6500153,"Marambio Station"
-74.61919259,164.2190271,"Zucchelli Station"
-67.5647756,-68.12354055,"Rothera Station"
-64.76241335,-64.0468756,"Palmer Station"
-62.18274357,-58.90765233,"Base Presidente Montalva"
-62.22414386,-58.65047599,"Carlini Station"
-62.2248534,-58.77159876,"King Sejong Station"
-62.21631997,-58.9666956,"Great Wall Station"
-62.19496251,-58.95266582,"Escudero Base"
-61.99958901,-57.99998458,"Elephant Island"
-77.84693819,166.7491023,"Scott Base"
-77.73228239,166.8694157,"McMurdo Station"
-69.43406299,76.33929808,"Zhongshan Station"
-78.46628416,106.8000337,"Vostok"
-68.83286701,90.49999508,"Peter I Island"
-66.57552952,93.00628846,"Mirny Station"
-67.61452032,62.87500073,"Mawson Station"
-68.77767439,78.14073509,"Davis Station"
-74.66630939,124.1670357,"Concordia Research Station"
-66.28608614,110.536214,"Casey Station"
-89.98289386,139.2669926,"Amundsen–Scott South Pole Station"
-73.0496122,-13.41671106,"Wasa Station"
-72.01629026,2.533323119,"Troll Station"
-74.58290363,-11.21669031,"Svea Station"
-71.30123475,-11.8502129,"Novolazarevskaya Station"
-70.89039668,-7.838438004,"Neumayer Station III"
-70.7821796,11.7304584,"Maitri Station"
-76.09226319,-26.4741567,"Halley Station"
-77.86632078,-34.61668319,"Belgrano Station"
-81.17908472,-40.50153152,"Camp Sobral"
-75.04959349,-13.41671106,"Aboa Station"
-68.1163216,-67.0999976,"San Martín Station"
-63.32841823,-57.88959352,"Gen. O'Higgins Station"
-63.37532865,-57.02590151,"Esperanza Station"
-60.7328963,-44.73330082,"Orcadas Station"
-60.63130815,-45.60070332,"Signy Research Station"
-66.77505091,139.9636836,"Dumont d'Urville Station"
-69.03039249,39.7460831,"Showa Station"
17.11803652,-61.85003382,"Saint John's"
-51.65003986,-72.30001612,"28 de Noviembre"
-48.76659829,-70.25001205,"Gobernador Gregores"
-49.97454865,-68.90347273,"Comondante Luis Piedrabuena"
-45.68337563,-70.26657434,"Paso Rio Mayo"
-45.03328611,-70.83328394,"Alto Rio Sanguer"
-42.05000568,-71.16662276,"El Maiten"
-42.77001341,-65.04001998,"Puerto Madryn"
-43.25003579,-65.3299506,"Trelew"
-32.82503904,-68.80167668,"Las Heras"
-33.06998533,-68.49001612,"San Martin"
-32.59311522,-69.34598454,"Uspallata"
-38.94001463,-69.24002202,"Cutral Co"
-38.87996662,-62.0799681,"Punta Alta"
-33.33002114,-60.24000289,"San Nicolas"
-34.15999632,-58.95997766,"Campana"
-34.65004393,-60.48998763,"Chacabuco"
-34.66001748,-59.44002588,"Mercedes"
-34.88000405,-61.53994938,"Lincoln"
-34.89995115,-60.03998926,"Chivilcoy"
-35.42999632,-60.17998071,"Veinticinco de Mayo"
-35.44596434,-60.88998906,"Nueve de Julio"
-36.33004474,-57.68997766,"Dolores"
-39.48334064,-62.68331629,"Pedro Luro"
-38.3699719,-60.26994938,"Tres Arroyos"
-37.46661619,-61.9166189,"Coronel Suarez"
-37.83331216,-58.24999516,"Balcarce"
-37.80003253,-67.68329533,"25 de Mayo"
-39.01995807,-67.60996647,"General Roca"
-41.03332355,-70.26657434,"Comallo"
-41.30002562,-69.58330855,"Ingeniero Jacobacci"
-40.10004718,-64.43328699,"General Conesa"
-39.26660968,-65.68331405,"Choele Choel"
-31.43003375,-62.08996749,"San Francisco"
-31.65999388,-64.4299797,"Alta Gracia"
-32.41002562,-63.26002527,"Villa Maria"
-32.60003986,-62.67995732,"Bell Ville"
-32.18332111,-64.48328394,"Villa Rumipal"
-31.42000853,-64.50000126,"Villa Carlos Paz"
-28.86662433,-66.23330632,"Chumbicha"
-28.06662148,-67.56658411,"Tinogasta"
-22.7166638,-65.6999797,"Abra Pampa"
-23.19999347,-65.34994938,"Humahuaca"
-23.41667275,-66.4833169,"Susques"
-31.34998696,-66.5999506,"Chepes"
-22.03003904,-63.69999841,"Yacuiba"
-22.55000731,-63.81001754,"Tartagal"
-25.08334105,-64.18335392,"Joaquin V. Gonzalez"
-24.6666223,-65.04996769,"General Guemes"
-26.21665688,-65.28331262,"Trancas"
-26.7900069,-60.45001591,"Presidencia Roque Saenz Pena"
-26.51658689,-61.16658716,"Pampa del Infierno"
-27.58329181,-60.7166663,"Villa Angela"
-23.90000242,-61.84998214,"Ingeniero Guillermo N. Juarez"
-25.33329995,-59.68331852,"Comandante Fontana"
-22.47998574,-62.29998051,"Doctor Pedro P. Pena"
-28.12000324,-58.76998926,"San Lorenzo"
-27.48996417,-58.80998682,"Corrientes"
-32.47999551,-58.23999577,"Concepcion del Uruguay"
-32.61001341,-60.17998071,"Victoria"
-33.15003213,-59.34000615,"Gualeguay"
-31.73332273,-60.53334416,"Parana"
-33.23002724,-60.35002202,"Villa Constitucion"
-31.25004474,-61.49997766,"Rafaela"
-26.20001707,-54.59998539,"Eldorado"
-30.21558592,-69.1399506,"Rodeo"
-43.41627887,-67.24998845,"Las Plumas"
-42.28296303,-69.23330408,"Gastre"
-42.39959674,-66.95000676,"Telsen"
-35.46611815,-69.58330855,"Malargue"
-33.56618244,-69.01667647,"Tunuyan"
-33.46613686,-67.54999597,"La Paz"
-37.38295205,-70.26657434,"Chos Malal"
-38.51626788,-70.36659408,"Las Lajas"
-34.08956134,-59.04002446,"Zarate"
-37.1828609,-62.73331323,"Carhue"
-37.69957355,-63.16659428,"Darregueira"
-37.66551878,-59.80002975,"Juarez"
-36.71622272,-56.67660283,"Mar de Ajo"
-35.184895,-59.09467228,"Lobos"
-35.56621539,-58.01662439,"Chascomus"
-34.58456989,-60.95887374,"Junin"
-34.90961465,-57.95996118,"La Plata"
-33.89959878,-60.56998275,"Pergamino"
-34.57960895,-59.10999435,"Lujan"
-36.7796297,-59.86999964,"Azul"
-39.88285114,-62.58332239,"Villalonga"
-36.21625324,-65.45002079,"Victorica"
-35.65959471,-63.77001998,"General Pico"
-40.73287677,-64.93328231,"San Antonio Oeste"
-40.58286009,-67.79998071,"Sierra Colorado"
-33.68958576,-65.4699679,"Mercedes"
-32.1796004,-64.12002446,"Rio Tercero"
-27.64959267,-67.03328333,"Belen"
-22.43290851,-66.16659204,"Rinconada"
-24.21962116,-64.87000452,"San Pedro"
-23.81954222,-64.78998356,"Libertador General San Martin"
-29.16552081,-67.49999903,"Chilecito"
-30.34958291,-66.3166604,"Chamical"
-23.59960732,-62.60003972,"Los Blancos"
-26.08291828,-65.96660425,"Cafayate"
-24.89963133,-65.48330042,"Cerrillos"
-24.18293089,-66.35001754,"San Antonio de los Cobres"
-28.46613198,-62.83330713,"Anatuya"
-28.64958331,-65.14998743,"Frias"
-25.79962807,-62.86658675,"Monte Quemado"
-25.9495414,-60.61664657,"Juan Jose Castelli"
-27.21628579,-61.19999597,"Charata"
-24.69959186,-60.60000676,"Las Lomitas"
-29.1795768,-58.0799797,"Mercedes"
-31.38957111,-58.02998275,"Concordia"
-30.93290648,-61.56661442,"Sunchales"
-30.78288979,-60.58328943,"San Justo"
-29.4661743,-60.21659347,"Vera"
-29.13952757,-59.65001306,"Reconquista"
-33.74958209,-61.97000065,"Venado Tuerto"
-42.90003131,-71.31661361,"Esquel"
-38.90001707,-70.06666406,"Zapala"
-36.90003579,-60.3299974,"Olavarria"
-37.32001015,-59.15004358,"Tandil"
-40.79995278,-63.0000153,"Viedma"
-33.29999713,-66.35001754,"San Luis"
-33.13003335,-64.34998458,"Rio Cuarto"
-24.1833443,-65.30002995,"San Salvador de Jujuy"
-23.13999713,-64.32001225,"San Ramon de la Nueva Oran"
-29.13999266,-59.26998458,"Goya"
-49.30000242,-67.71665247,"Puerto San Julian"
-46.60001219,-70.93335535,"Perito Moreno"
-53.79144552,-67.6989952,"Rio Grande"
-54.79000324,-68.31000126,"Ushuaia"
-45.60002155,-69.08331323,"Sarmiento"
-34.60002114,-68.33333317,"San Rafael"
-38.55998615,-58.74999048,"Necochea"
-38.96657632,-64.08328251,"Rio Colorado"
-28.47000771,-65.78000065,"Catamarca"
-29.40995034,-66.84996118,"La Rioja"
-27.78333128,-64.26665633,"Santiago del Estero"
-27.45999184,-58.99002751,"Resistencia"
-33.02001422,-58.52000452,"Gualeguaychu"
-50.33332436,-72.30001612,"El Calafate"
-31.55002643,-68.51998845,"San Juan"
-43.3000069,-65.09999048,"Rawson"
-38.95003986,-68.05999068,"Neuquen"
-36.6200012,-64.29998763,"Santa Rosa"
-41.14995726,-71.29999964,"San Carlos de Bariloche"
-24.78335936,-65.41663782,"Salta"
-26.81600014,-65.21662419,"Tucumán"
-26.17283527,-58.1828158,"Formosa"
-31.62387205,-60.69000126,"Santa Fe"
-32.95112954,-60.66630762,"Rosario"
-47.75001951,-65.89996749,"Puerto Deseado"
-51.63329669,-69.21658675,"Rio Gallegos"
-45.87003091,-67.49999903,"Comodoro Rivadavia"
-32.88333006,-68.81661117,"Mendoza"
-38.74002684,-62.2650214,"Bahia Blanca"
-38.00002033,-57.57998438,"Mar del Plata"
-31.39995807,-64.18229456,"Córdoba"
-27.3578321,-55.88510735,"Posadas"
-34.60250161,-58.39753137,"Buenos Aires"
40.3016667,44.3591667,"Ashtarak"
40.8755556,45.1491667,"Ijevan"
39.9538889,44.5505556,"Artashat"
40.3588889,45.1266667,"Gavarr"
39.7611111,45.3333333,"Yeghegnadzor"
40.78943402,43.84749385,"Gyumri"
40.81276593,44.48828162,"Vanadzor"
40.18115074,44.51355139,"Yerevan"
12.53038373,-70.02899195,"Oranjestad"
-33.42004148,151.3000048,"Central Coast"
-26.67998777,153.0500272,"Sunshine Coast"
-30.1,145.9333333,"Bourke"
-13.81617348,131.816698,"Pine Creek"
-13.2495414,131.0999975,"Adelaide River"
-12.53289264,131.0500264,"McMinns Lagoon"
-17.55279295,133.4672432,"Newcastle Waters"
-33.58287392,120.0333345,"Ravensthorpe"
-33.29958372,117.3499841,"Wagin"
-20.7829317,117.1333048,"Roebourne"
-21.63657469,116.3250337,"Pannawonica"
-22.69346108,117.7930578,"Tom Price"
-27.66618081,114.1666642,"Kalbarri"
-28.06620807,117.8166739,"Mount Magnet"
-29.21626707,116.0000406,"Morawa"
-29.28282632,114.9166442,"Port Denison"
-31.48284707,118.2666723,"Merredin"
-34.632784,117.6666056,"Mount Barker"
-33.69955931,117.5500752,"Katanning"
-32.93288776,117.1666361,"Narrogin"
-31.34957355,115.9000468,"Gingin"
-33.34428384,115.6502429,"Bunbury"
-32.23939004,115.7702356,"Kwinana"
-31.216145,119.3166857,"Southern Cross"
-25.78841429,128.9973352,"Kaltukatjara"
-35.3546004,149.2113468,"Queanbeyan"
-28.1825834,153.5466377,"Tweed Heads"
-32.89960814,144.3000187,"Ivanhoe"
-31.56620115,143.3833304,"Wilcannia"
-36.89962238,149.9000386,"Merimbula"
-36.12959186,144.750017,"Echuca"
-35.5295768,144.9500048,"Deniliquin"
-34.88284625,150.6000476,"Nowra"
-35.34953611,150.4700297,"Ulladulla"
-35.68961871,150.2073067,"Batemans Bay"
-36.23955931,149.1200345,"Cooma"
-35.30959023,148.2200378,"Tumut"
-34.54493406,146.3973067,"Leeton"
-34.30959959,148.2900077,"Young"
-33.82962889,148.6800097,"Cowra"
-33.38960407,148.0199983,"Forbes"
-34.74957273,149.7101794,"Goulburn"
-34.70957518,150.8400329,"Kiama"
-33.70694904,150.320013,"Katoomba"
-33.59951373,150.7399873,"Richmond"
-33.49610919,150.152788,"Lithgow"
-33.12956826,148.170015,"Parkes"
-33.41962807,149.5700329,"Bathurst"
-32.72096271,151.555028,"Maitland"
-32.56949909,151.1600134,"Singleton"
-32.58960122,149.5801098,"Mudgee"
-32.26956907,150.890004,"Muswellbrook"
-31.89760211,152.4618461,"Taree"
-31.08736733,152.8220308,"Kempsey"
-30.9870117,150.2622904,"Gunnedah"
-30.3070532,153.1122973,"Coffs Harbour"
-30.33190957,149.7874357,"Narrabri"
-29.7667761,151.1125744,"Inverell"
-29.42299136,153.353312,"Yamba"
-28.86135333,153.5679801,"Ballina"
-35.12215981,147.3399882,"Wagga Wagga"
-32.07960651,150.8501098,"Scone"
-28.65650796,153.6128869,"Byron Bay"
-34.28293455,140.6000378,"Berri"
-32.96616738,138.8333239,"Peterborough"
-33.9328784,137.6332938,"Wallaroo"
-33.8328845,138.6000048,"Clare"
-35.69954059,139.3333451,"Meningie"
-36.83280475,139.8500577,"Kingston South East"
-36.31619546,140.7666426,"Bordertown"
-37.38295205,140.8166654,"Penola"
-30.89957518,135.2999996,"Kingoonya"
-33.14961871,136.4333671,"Kimba"
-32.81187176,134.2149296,"Streaky Bay"
-33.68286782,136.9166451,"Cowell"
-34.38292845,136.0833109,"Tumby Bay"
-30.43097329,137.1655704,"Andamooka"
-31.14958576,136.8000114,"Woomera"
-33.19106321,137.9900162,"Port Pirie"
-34.60735919,138.7263537,"Gawler"
-35.12960122,139.2600162,"Murray Bridge"
-35.55960081,138.6173164,"Victor Harbor"
-37.73119953,142.0234135,"Hamilton"
-35.06619424,142.3166772,"Ouyen"
-38.33953449,143.5800109,"Colac"
-37.05961261,142.7600093,"Stawell"
-36.70960814,142.1900183,"Horsham"
-37.27954751,142.9099743,"Ararat"
-37.04958738,143.729976,"Maryborough"
-37.82959145,147.6099975,"Bairnsdale"
-38.10957436,147.0600052,"Sale"
-38.19959471,146.5300118,"Traralgon"
-38.60949217,145.5900175,"Wonthaggi"
-38.09960081,145.2833695,"Cranbourne"
-37.55958209,143.8400468,"Ballarat"
-37.68954832,144.570028,"Melton"
-37.03423948,145.1273067,"Seymour"
-36.37458982,145.3913732,"Shepparton"
-35.91963051,145.6500138,"Cobram"
-35.33961424,143.5400134,"Swan Hill"
-37.56960732,144.7100195,"Sunbury"
-20.41623574,148.5834781,"Proserpine"
-24.94949909,150.0833349,"Theodore"
-25.36621784,151.1333483,"Eidsvold"
-23.56617267,145.2833695,"Barcaldine"
-22.39962889,143.0332743,"Winton"
-23.44959064,144.2500476,"Longreach"
-27.08296059,152.9499816,"Caboolture"
-28.22924721,152.0203226,"Warwick"
-26.53896279,151.840592,"Kingaroy"
-27.19385822,151.2657434,"Dalby"
-27.07872313,153.1508996,"Bongaree"
-26.18859658,152.6709289,"Gympie"
-18.64957355,146.1666231,"Ingham"
-25.89962197,139.3666247,"Birdsville"
-24.34958738,139.4666186,"Bedourie"
-22.89959837,139.9000288,"Boulia"
-20.71626911,143.1333199,"Richmond"
-17.71609048,139.5666125,"Burketown"
-25.28870319,152.8409444,"Hervey Bay"
-24.39356403,150.4960746,"Biloela"
-23.13291746,150.7567305,"Yeppoon"
-23.51222247,148.1673278,"Emerald"
-22.00156533,148.0380334,"Moranbah"
-20.08090737,146.2587105,"Charters Towers"
-19.57024087,147.3994677,"Ayr"
-17.27027789,145.469353,"Atherton"
-16.48458812,145.4587219,"Port Douglas"
-40.83292234,145.1166613,"Smithton"
-41.14949217,147.5166699,"Scottsdale"
-41.87838825,148.2886124,"Bicheno"
-42.29960285,147.3666015,"Oatlands"
-42.08292356,145.5500199,"Queenstown"
-42.99113686,147.3084139,"Kingston"
-19.65002928,134.200015,"Tennant Creek"
-25.24054075,130.9888932,"Yulara"
-25.23330605,133.1999727,"Erldunda"
-32.20001259,121.7666137,"Norseman"
-18.26670286,127.7667126,"Halls Creek"
-15.76659707,128.7333203,"Kununurra"
-17.29999184,123.9666345,"Derby"
-21.65759354,115.0962959,"Onslow"
-21.93109987,114.1233469,"Exmouth"
-24.89983803,113.6501066,"Carnarvon"
-23.36659829,119.7333011,"Newman"
-26.59999266,118.4832999,"Meekatharra"
-29.53330198,115.7499784,"Three Springs"
-34.23332518,116.1500057,"Manjimup"
-31.65658323,116.6533858,"Northam"
-33.857307,121.8888973,"Esperance"
-28.88150714,121.3280358,"Leonara"
-28.62700071,122.4040425,"Laverton"
-15.37395953,128.3600614,"Wyndham"
-36.06003538,146.9200138,"Albury"
-32.19313963,152.5266483,"Forster-Tuncurry"
-31.44501992,152.9186657,"Port Macquarie"
-31.10261188,150.9171342,"Tamworth"
-29.71199909,152.9376827,"Grafton"
-29.469895,149.8300687,"Moree"
-28.55480874,150.325284,"Goondiwindi"
-28.81665322,153.2931132,"Lismore"
-34.41538125,150.890004,"Wollongong"
-32.09913464,133.6622674,"Ceduna"
-37.83134845,140.7650406,"Mount Gambier"
-32.49002073,137.7700297,"Port Augusta"
-38.37999713,142.4700012,"Warrnambool"
-34.18500771,142.1513643,"Mildura"
-38.16749505,144.3956335,"Geelong"
-19.91673134,138.1166752,"Camooweal"
-26.61663247,144.2500476,"Quilpie"
-26.40000486,146.2500288,"Charleville"
-20.85000771,144.2000248,"Hughenden"
-26.80003213,153.1333296,"Caloundra"
-26.55937498,148.7907006,"Roma"
-27.56453327,151.9555204,"Toowoomba"
-18.30003416,143.5332955,"Georgetown"
-27.99995888,143.816689,"Thargomindah"
-12.66663125,141.8666272,"Weipa"
-17.48333982,140.8334086,"Karumba"
-20.69999103,140.4999922,"Cloncurry"
-25.54910073,152.7209,"Maryborough"
-24.87906411,152.3508968,"Bundaberg"
-23.8533386,151.2467264,"Gladstone"
-20.00132566,148.208669,"Bowen"
-17.53134723,146.0386722,"Innisfail"
-21.14389158,149.1500069,"Mackay"
-41.06660317,145.9166642,"Burnie"
-41.44983559,147.1301818,"Launceston"
-14.46662474,132.266593,"Katherine"
-33.65640949,115.3486592,"Busselton"
-32.52348259,115.7470567,"Mandurah"
-17.96177069,122.2307681,"Broome"
-30.73539915,121.4600175,"Kalgoorlie"
-35.0169466,117.8916048,"Albany"
-20.31040241,118.6060315,"Port Hedland"
-20.73037677,116.8700134,"Karratha"
-28.76663043,114.5999711,"Geraldton"
-34.29001422,146.0400158,"Griffith"
-33.27999835,149.0999841,"Orange"
-32.25995726,148.5973274,"Dubbo"
-30.51231199,151.667476,"Armidale"
-31.94995034,141.4331136,"Broken Hill"
-34.73324298,135.86658,"Port Lincoln"
-33.02502684,137.5614119,"Whyalla"
-38.33999957,141.5900032,"Portland"
-36.75999266,144.2800199,"Bendigo"
-36.36001707,146.3,"Wangaratta"
-25.43324217,142.6501969,"Windorah"
-20.72386554,139.490028,"Mount Isa"
-23.36391111,150.5200008,"Rockhampton"
-16.88783986,145.7633309,"Cairns"
-28.08150429,153.4482458,"Gold Coast"
-41.19266757,146.3311017,"Devonport"
-12.42535398,130.8500386,"Darwin"
-23.70099648,133.8800345,"Alice Springs"
-35.28302855,149.1290262,"Canberra"
-32.84534788,151.8150122,"Newcastle"
-34.93498777,138.6000048,"Adelaide"
-19.24995034,146.7699971,"Townsville"
-27.45503091,153.0350927,"Brisbane"
-42.85000853,147.2950297,"Hobart"
-31.95501463,115.8399987,"Perth"
-37.82003131,144.9750162,"Melbourne"
-33.92001097,151.1851798,"Sydney"
47.51669707,9.766701588,"Bregenz"
47.83329908,16.53329747,"Eisenstadt"
47.81598187,16.24995357,"Wiener Neustadt"
47.0777582,15.41000484,"Graz"
46.62034426,14.3100203,"Klagenfurt"
48.31923281,14.28878129,"Linz"
48.56704714,13.46660925,"Passau"
47.81047833,13.0400203,"Salzburg"
47.28040733,11.4099906,"Innsbruck"
48.20001528,16.36663896,"Vienna"
40.5655556,45.8161111,"Gadabay"
40.6102778,46.7897222,"Goranboy"
40.9922222,45.6288889,"Tovuz"
40.9052778,45.5563889,"Agdam"
40.9813889,47.8458333,"Qabala"
41.0708333,47.4583333,"Oguz"
40.68499595,46.35002844,"Ganca"
40.61719647,47.15003129,"Yevlax"
40.58001528,49.62998328,"Sumqayt"
39.93230288,48.92025915,"Ali Bayramli"
40.65342165,47.74058956,"Goycay"
38.7540027,48.85106441,"Lankaran"
41.19232932,47.17054683,"Saki"
39.81564333,46.75196773,"Stepanakert"
39.20152061,46.41498572,"Kapan"
39.2092204,45.41220455,"Naxcivan"
40.39527203,49.86221716,"Baku"
26.23613629,50.58305172,"Manama"
24.24997845,89.92003048,"Tangail"
24.90355613,91.87360632,"Sylhet"
24.75041302,90.3800024,"Mymensingh"
24.90042971,89.95000281,"Jamalpur"
23.62040448,90.49999508,"Narayanganj"
23.17043194,89.19997107,"Jessore"
22.70040895,90.37498979,"Barisal"
23.47041363,91.16998002,"Comilla"
24.00038129,89.24999385,"Pabna"
24.58039756,88.34999711,"Nawabganj"
25.80042645,88.99998328,"Saidpur"
25.75001609,89.28001786,"Rangpur"
22.839987,89.56000077,"Khulna"
24.37498374,88.6050203,"Rajshahi"
23.72305971,90.40857947,"Dhaka"
22.32999229,91.79996741,"Chittagong"
13.10200258,-59.61652674,"Bridgetown"
53.13684572,26.01344031,"Baranavichy"
55.48938946,28.78598425,"Polatsk"
54.31878908,26.86532629,"Maladzyechna"
52.12786338,26.09405554,"Pinsk"
52.04595624,29.27215613,"Mazyr"
53.89850466,30.32465002,"Mahilyow"
53.12656211,29.19278113,"Babruysk"
54.51531455,30.42154333,"Orsha"
53.88847943,25.28464758,"Lida"
53.67787213,23.83409013,"Hrodna"
54.22600405,28.49215206,"Barysaw"
52.43001548,31.00000932,"Homyel"
55.18871014,30.18533036,"Vitsyebsk"
52.09998395,23.69998979,"Brest"
53.89997744,27.56662716,"Minsk"
50.44599911,3.939003561,"Mons"
50.96400317,5.483997561,"Hasselt"
49.68330313,5.816700472,"Arlon"
51.02999758,3.700021931,"Gent"
50.62999615,5.580010537,"Liege"
51.22037355,3.230024779,"Brugge"
50.47039349,4.870028034,"Namur"
50.42039654,4.450001992,"Charleroi"
51.22037355,4.415017048,"Antwerpen"
50.83331708,4.333316608,"Brussels"
17.15599807,-89.06100252,"El Cayo"
18.39799811,-88.3880005,"Corozal"
16.97003522,-88.22000045,"Dangriga"
17.49871096,-88.18837447,"Belize City"
18.09043194,-88.5599797,"Orange Walk"
16.1003467,-88.81001612,"Punta Gorda"
17.25203351,-88.767073,"Belmopan"
6.615000092,1.715004457,"Lokossa"
11.13036582,2.940016641,"Kandi"
6.360372741,2.089991006,"Ouidah"
7.190399596,1.98999711,"Abomey"
10.32041526,1.389982054,"Natitingou"
9.700427265,1.680041869,"Djougou"
9.340009988,2.620036172,"Parakou"
6.483310973,2.616625528,"Porto-Novo"
6.400008564,2.519990599,"Cotonou"
32.29419029,-64.78393742,"Hamilton"
27.3833011,89.51670065,"Paro"
27.63330305,89.83330266,"Punakha"
27.43329603,89.91669667,"Wangdue Prodrang"
27.47298586,89.63901404,"Thimphu"
-17.55000242,-65.83997115,"Punata"
-17.58999998,-65.9299915,"Cliza"
-17.39998574,-66.27999597,"Quillacollo"
-16.87004393,-64.78001001,"Puerto Villarroel"
-19.18003213,-64.91994979,"Tarabuco"
-10.82999917,-65.4099974,"Guayaramerin"
-13.7600012,-65.57996118,"Santa Ana"
-13.58001219,-63.58005742,"Baures"
-17.33001585,-67.72998499,"Sica Sica"
-14.46001015,-67.55999536,"Rurrenabaque"
-15.79000649,-68.66005742,"Sorata"
-16.08332192,-68.66656865,"Achacachi"
-16.65000568,-68.2999502,"Viacha"
-16.98001137,-67.22001612,"Quime"
-18.42002684,-66.63999984,"Llallagua"
-18.46999795,-66.57002995,"Uncia"
-20.46000568,-66.82998824,"Uyuni"
-20.76655027,-67.7833409,"Villa Martin"
-19.55995726,-65.45002079,"Betanzos"
-17.36003986,-63.40001673,"Portachuelo"
-18.18004148,-63.77001998,"Samaipata"
-20.45003213,-63.52998295,"Cuevo"
-17.39998574,-63.72999658,"San Carlos"
-21.47994342,-64.77001062,"San Lorenzo"
-21.53001788,-64.18999435,"Entre Rios"
-18.18954995,-65.18001144,"Aiquile"
-19.29961139,-64.30996118,"Padilla"
-20.63958128,-65.20998377,"Camargo"
-14.30958006,-67.37000696,"Reyes"
-14.81962645,-66.84996118,"San Borja"
-13.2600834,-64.05276758,"Magdalena"
-13.28959064,-64.70998845,"San Ramon"
-12.49961302,-68.66656865,"Puerto Heath"
-17.5996118,-69.46659733,"Charana"
-15.49958494,-69.16666732,"Puerto Acosta"
-14.71958087,-68.41999455,"Apolo"
-16.18962034,-67.72001144,"Coroico"
-17.1696122,-68.44996688,"Coro Coro"
-19.01626951,-68.38327844,"Sabaya"
-18.89958413,-66.77999129,"Challapata"
-19.84960366,-68.25003076,"Llica"
-19.56956907,-65.75002832,"Potosi"
-22.07959674,-65.5999858,"Villazon"
-21.43958413,-65.72000431,"Tupiza"
-17.34960122,-63.26002527,"Montero"
-13.68295164,-61.86662195,"Piso Firme"
-18.3295414,-59.75998051,"Robore"
-17.77960081,-57.77002446,"Puerto Quijarro"
-16.36960936,-60.96001062,"San Ignacio"
-15.69957273,-63.07998458,"Ascension"
-16.28961424,-62.50001998,"San Javier"
-16.77950682,-60.6799502,"San Rafael"
-18.48958331,-64.10999923,"Vallegrande"
-18.94955524,-57.8499679,"Puerto Suarez"
-19.79958087,-63.2199502,"Charagua"
-21.24956989,-63.50001062,"Villamontes"
-22.72958291,-64.34998458,"Bermejo"
-17.41001097,-66.16997685,"Cochabamba"
-17.97995034,-67.12999577,"Oruro"
-20.05000486,-63.51998356,"Camiri"
-11.03334593,-68.73330876,"Cobija"
-16.35999754,-58.42001062,"San Matias"
-17.85003579,-60.77999577,"San José"
-14.83337238,-64.89997685,"Trinidad"
-21.51668537,-64.749986,"Tarija"
-19.04097085,-65.25951563,"Sucre"
-10.98301308,-66.10000696,"Riberalta"
-16.49797361,-68.14998519,"La Paz"
-17.75391762,-63.22599634,"Santa Cruz"
44.21997398,17.91998083,"Zenica"
43.35049217,17.82003861,"Mostar"
44.5504706,18.6800378,"Tuzla"
44.98039268,16.70000362,"Prijedor"
44.78040489,17.17997432,"Banja Luka"
43.8500224,18.38300167,"Sarajevo"
-24.377004,26.15200256,"Mochudi"
-21.69961994,21.63996049,"Ghanzi"
-24.16959837,21.83002641,"Lokhwabe"
-23.96961058,21.87002397,"Lehututu"
-26.00948606,22.40001745,"Tshabong"
-20.15961058,22.45996212,"Tsau"
-19.66961465,22.26999955,"Nokaneng"
-18.29956907,21.8000024,"Mohembo"
-19.98959511,23.42000688,"Maun"
-17.80957314,25.15003048,"Kasane"
-20.20947833,26.19001868,"Nata"
-21.17954832,24.88002112,"Mopipi"
-22.55961912,27.13001298,"Palapye"
-25.2196118,25.68002397,"Lobatse"
-24.96960122,25.33999304,"Kanye"
-24.3999719,25.5100085,"Molepolole"
-21.17003986,27.50001623,"Francistown"
-23.09999957,26.82000606,"Mahalapye"
-22.39001707,26.71003861,"Serowe"
-24.64631346,25.91194779,"Gaborone"
-5.809995505,-46.14998438,"Grajau"
-5.250029685,-44.51998051,"Presidente Dutra"
-3.400013409,-44.36001611,"Itapecuru Mirim"
-2.549987774,-44.06998214,"Sao Jose de Ribamar"
-3.659997539,-45.39003076,"Santa Ines"
-2.940041485,-44.26002222,"Rosario"
-5.114999167,-42.84496647,"Timon"
-1.190019105,-47.17999903,"Capanema"
-1.949972718,-50.81998356,"Portel"
-5.120011781,-49.30002466,"Itupiranga"
-11.64002724,-61.20999536,"Pimenta Bueno"
-22.53000853,-55.7299681,"Ponta Pora"
-21.610013,-55.18002751,"Maracaju"
-21.47994342,-56.15001998,"Jardim"
-20.79001137,-51.72000615,"Tres Lagoas"
-18.78000486,-42.95002466,"Guanhaes"
-21.53001788,-42.64004358,"Leopoldina"
-19.98003497,-43.8500214,"Nova Lima"
-22.22000161,-45.94002303,"Pouso Alegre"
-20.06003009,-44.57002914,"Itauna"
-19.79002073,-42.13999658,"Caratinga"
-18.23998615,-43.60998438,"Diamantina"
-17.83995888,-40.35002832,"Nanuque"
-21.22001097,-43.77000045,"Barbacena"
-21.78002846,-46.56998458,"Pocos de Caldas"
-21.29003253,-46.7099502,"Guaxupe"
-21.1300423,-44.24999699,"Sao Joao del Rei"
-21.1300423,-42.38998132,"Muriae"
-20.71001626,-46.60998214,"Passos"
-20.6700187,-43.78999923,"Conselheiro Lafaiete"
-20.46000568,-45.43002832,"Formiga"
-20.03000608,-48.94002079,"Frutal"
-19.72997272,-50.2000214,"Iturama"
-18.97001911,-49.45998906,"Ituiutaba"
-18.64001341,-48.19998845,"Araguari"
-16.17003497,-40.70000696,"Almenara"
-15.65001504,-56.14002059,"Varzea Grande"
-16.0500423,-57.51001449,"Cáceres"
-30.88004148,-55.53000615,"Santana do Livramento"
-29.91999673,-51.17998743,"Canoas"
-30.38002033,-56.45994938,"Quarai"
-33.52003538,-53.36998295,"Santa Vitoria do Palmar"
-31.36998574,-51.98001611,"Sao Lourenco do Sul"
-29.36003091,-50.81001001,"Canela"
-30.32002399,-54.32002832,"Sao Gabriel"
-30.25000242,-54.92001754,"Rosario do Sul"
-30.02996417,-52.90998519,"Cachoeira do Sul"
-29.87999917,-50.26999129,"Osorio"
-29.71003538,-52.44003972,"Santa Cruz do Sul"
-28.41001137,-54.95998926,"Sao Luiz Gonzaga"
-28.30004393,-54.28003076,"Santo Angelo"
-28.2900187,-52.80004358,"Carazinho"
-27.63000731,-52.26999841,"Erechim"
-24.08996499,-54.2699797,"Guaira"
-26.47999998,-51.99998906,"Palmas"
-23.41000649,-51.43004968,"Arapongas"
-25.52787556,-48.53445345,"Paranagua"
-25.57002968,-49.18000615,"Sao Jose dos Pinhais"
-25.38001544,-51.48002079,"Guarapuava"
-26.10002317,-49.79002059,"Rio Negro"
-23.54999795,-51.4700214,"Apucarana"
-25.76004393,-49.72999841,"Lapa"
-25.47003579,-50.65996749,"Irati"
-24.79002562,-50.00998132,"Castro"
-24.32995034,-50.61999577,"Telemaco Borba"
-23.15994424,-49.97998316,"Jacarezinho"
-27.23003172,-52.03001306,"Concordia"
-26.9200248,-49.0899858,"Blumenau"
-27.12998615,-48.9300214,"Brusque"
-28.94000486,-49.49998661,"Ararangua"
-26.47999998,-49.09998519,"Jaragua do Sul"
-28.48003294,-49.02001591,"Tubarao"
-28.48003294,-48.77997888,"Laguna"
-27.17003538,-51.4999679,"Joacaba"
-26.77000812,-51.02002303,"Cacador"
-26.17996662,-50.4000092,"Canoinhas"
-2.89999225,-40.85002364,"Camocim"
-4.940022767,-37.97999211,"Russas"
-3.690021547,-40.35002832,"Sobral"
-6.359987774,-39.29998906,"Iguatu"
-4.969995098,-39.02000615,"Quixada"
-4.35003294,-39.30998845,"Caninde"
-4.820030091,-42.18001998,"Campo Maior"
-4.250039043,-42.29998682,"Barras"
-9.48000405,-35.83996769,"Rio Largo"
-9.416597067,-36.61663863,"Palmeira dos Indios"
-16.28000242,-39.0299797,"Santa Cruz Cabralia"
-9.330659161,-38.26565943,"Paulo Afonso"
-14.20999957,-41.67002527,"Brumado"
-13.5299894,-39.96999984,"Jaguaquara"
-15.24998777,-40.24998275,"Itapetinga"
-14.30001992,-39.33001306,"Ubaitaba"
-20.85000771,-41.12998071,"Cachoeiro de Itapemirim"
-22.56003253,-44.1699502,"Barra Mansa"
-22.74002155,-43.46996708,"Nova Iguacu"
-22.76999388,-43.30997685,"Duque de Caxias"
-22.90001178,-43.09998967,"Niteroi"
-22.88998655,-42.03997685,"Cabo Frio"
-22.37999184,-41.78999211,"Macae"
-21.41002521,-42.19996708,"Miracema"
-5.650005271,-37.80000309,"Apodi"
-6.219996319,-36.02998194,"Santa Cruz"
-17.73004311,-49.10998458,"Morrinhos"
-15.30331785,-49.60519983,"Ceres"
-18.18004148,-47.9500037,"Catalao"
-16.76999835,-47.61002446,"Cristalina"
-16.65000568,-49.49998661,"Trindade"
-16.45001788,-51.12999048,"Ipora"
-16.35999754,-49.49998661,"Inhumas"
-16.01996662,-49.80996769,"Itaberai"
-23.65283405,-46.52781661,"Santo Andre"
-22.91995888,-45.47002588,"Pindamonhangaba"
-22.40996417,-47.56002751,"Rio Claro"
-22.97003335,-49.86998987,"Ourinhos"
-24.17998533,-46.80002222,"Itanhaem"
-21.25003497,-48.32998051,"Jaboticabal"
-22.95003457,-46.5499858,"Braganca Paulista"
-23.19999347,-46.8799915,"Jundiai"
-23.19999347,-45.87994918,"Sao Jose dos Campos"
-22.81996499,-45.18999129,"Guaratingueta"
-21.99004148,-47.42998377,"Pirassununga"
-22.74994342,-47.32998987,"Americana"
-22.70999754,-47.63999679,"Piracicaba"
-21.98001626,-46.78999699,"Sao Joao da Boa Vista"
-22.02001382,-47.88998153,"Sao Carlos"
-21.92999347,-50.5199502,"Tupa"
-21.41002521,-50.08000289,"Penapolis"
-22.12000771,-51.39000045,"Presidente Prudente"
-24.49004393,-47.83998458,"Registro"
-23.35001015,-47.8600092,"Tatui"
-23.1100248,-48.9300214,"Avare"
-22.22000161,-49.65997685,"Garca"
-21.14001585,-48.97996668,"Catanduva"
-20.89000527,-47.58999984,"Batatais"
-20.55002602,-48.58001693,"Barretos"
-22.21002806,-49.95001083,"Marilia"
-23.26004148,-47.30001754,"Itu"
-23.58999551,-48.03999821,"Itapetininga"
-8.110010153,-35.02004358,"Jaboatao"
-7.999991029,-34.8499506,"Olinda"
-8.289999167,-35.02999129,"Cabo de Santo Agostinho"
-7.840000795,-35.26000309,"Carpina"
-8.420017071,-37.06999597,"Arcoverde"
-3.289580873,-60.6199797,"Manacapuru"
-3.389626446,-57.72002751,"Maues"
-4.569606101,-44.67002303,"Pedreiras"
-4.479585756,-43.8799679,"Codo"
-4.12958128,-44.15000309,"Coroata"
-3.739527569,-43.35999964,"Chapadinha"
-2.519602032,-45.0899974,"Pinheiro"
-5.509600404,-45.25996118,"Barra do Corda"
-3.209585756,-45.00000289,"Viana"
-6.039542217,-44.2399976,"Colinas"
-1.196478659,-46.14001083,"Viseu"
-1.74962319,-47.09000452,"Capitao Poco"
-1.28959959,-47.93003076,"Castanhal"
-0.609486065,-47.33998926,"Salinopolis"
-1.939585756,-54.78999964,"Alenquer"
-1.759596742,-55.86998539,"Oriximina"
-7.100614401,-49.94804712,"Xinguara"
-4.599578431,-49.38996749,"Jacundá"
-3.82959959,-54.02999435,"Uruara"
-3.199612204,-52.21000208,"Altamira"
-2.959575176,-47.49000594,"Paragominas"
-2.239619121,-49.509986,"Cameta"
-11.73020262,-61.78063237,"Rolim de Moura"
-9.939614239,-63.07998458,"Ariquemes"
-9.69539142,-65.35971623,"Abuna"
-6.319576804,-47.41998438,"Tocantinopolis"
-11.71960895,-49.05998763,"Gurupi"
-20.46961749,-55.79001611,"Aquidauana"
-19.6795882,-51.20001205,"Paranaiba"
-19.44962807,-44.24999699,"Sete Lagoas"
-20.14953367,-44.89998316,"Divinopolis"
-19.4796004,-42.51999923,"Ipatinga"
-19.5795943,-46.95001306,"Araxa"
-21.24956989,-45.0099506,"Lavras"
-21.11960366,-42.95002466,"Uba"
-20.88959186,-45.2799858,"Campo Belo"
-20.40962116,-42.8999502,"Ponte Nova"
-18.75959267,-44.429986,"Curvelo"
-17.19958453,-46.86999211,"Paracatu"
-17.10961587,-43.81004968,"Bocaiuva"
-16.85960529,-42.06994918,"Aracuai"
-15.79961831,-43.30997685,"Janauba"
-11.3995768,-59.50002222,"Juina"
-15.87961342,-52.25999903,"Barra do Garcas"
-15.21960203,-59.3499797,"Pontes e Lacerda"
-15.06958535,-57.19000818,"Barra do Bugres"
-16.4694999,-54.63998295,"Rondonopolis"
-29.76961831,-57.08998845,"Uruguaiana"
-28.65960854,-56.00997685,"Sao Borja"
-29.70962197,-51.13998987,"Novo Hamburgo"
-32.04947915,-52.12000757,"Rio Grande"
-30.83963051,-51.81000065,"Camaqua"
-29.1694999,-51.51996668,"Bento Goncalves"
-28.49961831,-50.94000208,"Vacaria"
-28.38954751,-53.91994938,"Ijui"
-27.86952757,-54.4599681,"Santa Rosa"
-23.4095414,-51.92996749,"Maringa"
-24.95957599,-53.46002914,"Cascavel"
-24.04960569,-52.41998926,"Campo Murao"
-25.52346922,-54.52998967,"Foz do Iguacu"
-26.23960122,-48.59998987,"Sao Francisco do Sul"
-26.23960122,-51.07996769,"Porto Uniao"
-26.89961261,-48.68001083,"Itajai"
-28.22960895,-48.66001205,"Imbituba"
-27.80958291,-50.30998885,"Lajes"
-3.119513734,-40.83999841,"Granja"
-7.229598776,-39.42000757,"Crato"
-3.499542217,-39.58002364,"Itapipoca"
-3.399548321,-39.04003076,"Paracuru"
-2.889605287,-40.11999068,"Acarau"
-5.999492982,-40.31003076,"Taua"
-5.165590394,-40.66600387,"Crateus"
-4.329569073,-38.87998885,"Baturite"
-4.319595521,-40.72005742,"Ipu"
-6.769575176,-43.0299681,"Floriano"
-4.269572735,-41.78999211,"Piripiri"
-10.26961994,-36.58002588,"Penedo"
